City,Cloudiness,Country,Date,Humidity,Lat,Lng,Max Temp,Wind Speed
bethel,75.0,US,1551657360,69.0,60.79,-161.76,35.6,10.29
saleaula,,,,,,,,
busselton,0.0,AU,1551657800,38.0,-33.64,115.35,70.0,18.39
lavrentiya,88.0,RU,1551657897,95.0,65.58,-170.99,28.43,34.61
sulat,92.0,PH,1551658410,99.0,11.81,125.45,77.71,7.76
batagay-alyta,24.0,RU,1551658410,30.0,67.8,130.41,-22.56,2.62
hilo,90.0,US,1551657830,57.0,19.71,-155.08,75.2,9.17
moron,8.0,VE,1551658411,74.0,10.49,-68.2,72.35,3.96
ribeira grande,40.0,PT,1551655800,67.0,38.52,-28.7,59.0,12.75
jamestown,48.0,AU,1551657872,78.0,-33.21,138.6,76.54,4.63
hobart,75.0,AU,1551657796,34.0,-42.88,147.33,70.0,11.41
quelimane,88.0,MZ,1551658412,93.0,-17.88,36.89,77.17,9.22
naryan-mar,0.0,RU,1551658412,57.0,67.67,53.09,-6.27,8.77
punta arenas,20.0,CL,1551658392,61.0,-53.16,-70.91,50.0,23.04
marawi,0.0,PH,1551657678,78.0,8.0,124.29,80.01,2.62
tshikapa,48.0,CD,1551658413,97.0,-6.42,20.79,73.12,1.83
muisne,75.0,EC,1551654000,78.0,0.61,-80.02,82.4,6.93
albany,90.0,US,1551657685,87.0,42.65,-73.75,35.01,2.51
taolanaro,,,,,,,,
dikson,36.0,RU,1551657893,95.0,73.51,80.55,-5.14,24.32
mahebourg,40.0,MU,1551657846,78.0,-20.41,57.7,80.6,8.05
samarai,0.0,PG,1551657927,100.0,-10.62,150.67,82.39,4.41
bocas del toro,100.0,PA,1551658200,66.0,9.33,-82.25,60.01,3.0
celestun,0.0,MX,1551658415,91.0,20.87,-90.4,80.63,13.69
ilulissat,64.0,GL,1551653400,79.0,69.22,-51.1,19.4,4.7
ushuaia,75.0,AR,1551654000,88.0,-54.81,-68.31,51.8,11.41
joshimath,44.0,IN,1551658416,96.0,30.57,79.57,6.52,0.6
san patricio,0.0,PY,1551658416,74.0,-26.98,-56.83,77.08,2.51
longyearbyen,75.0,NO,1551657000,64.0,78.22,15.63,-4.01,5.82
mataura,0.0,NZ,1551657859,43.0,-46.19,168.86,70.46,18.16
faanui,12.0,PF,1551657901,100.0,-16.48,-151.75,83.51,3.62
tianpeng,56.0,CN,1551658417,95.0,28.88,112.34,43.69,4.41
anadyr,90.0,RU,1551658392,95.0,64.73,177.51,32.0,38.03
college,75.0,US,1551658201,73.0,64.86,-147.8,25.0,3.36
clyde river,1.0,CA,1551654000,83.0,70.47,-68.59,-7.61,1.95
peniche,75.0,PT,1551658259,87.0,39.36,-9.38,59.0,9.17
bluff,0.0,AU,1551657870,58.0,-23.58,149.07,78.65,13.8
bambous virieux,40.0,MU,1551658147,78.0,-20.34,57.76,80.6,8.05
benicarlo,8.0,ES,1551658272,46.0,40.42,0.43,60.01,1.01
rikitea,68.0,PF,1551657883,100.0,-23.12,-134.97,79.51,12.24
wukari,12.0,NG,1551658420,59.0,7.87,9.78,82.75,13.13
tuktoyaktuk,90.0,CA,1551654000,85.0,69.44,-133.03,21.2,23.04
comodoro rivadavia,40.0,AR,1551654000,79.0,-45.87,-67.48,66.2,19.46
amderma,,,,,,,,
padang,75.0,ID,1551654000,100.0,-0.92,100.36,75.2,3.36
ponta do sol,80.0,BR,1551658421,93.0,-20.63,-46,66.68,5.64
leningradskiy,68.0,RU,1551657967,94.0,69.38,178.42,15.97,18.05
bengkulu,,,,,,,,
tasiilaq,92.0,GL,1551653400,62.0,65.61,-37.64,24.8,16.11
katsuura,90.0,JP,1551657283,100.0,33.93,134.5,50.0,5.82
norman wells,5.0,CA,1551654000,46.0,65.28,-126.83,8.6,2.24
barrow,92.0,AR,1551657869,55.0,-38.31,-60.23,73.57,15.48
shingu,75.0,JP,1551654000,100.0,33.72,135.99,51.8,2.24
fortuna,0.0,ES,1551657870,76.0,38.18,-1.13,57.99,2.24
esperance,75.0,TT,1551657616,88.0,10.24,-61.45,75.2,10.29
troitskoye,48.0,RU,1551658423,96.0,52.98,84.68,27.8,4.41
san francisco,90.0,US,1551658142,87.0,37.78,-122.42,55.99,6.93
conceicao do araguaia,32.0,BR,1551658424,94.0,-8.26,-49.26,75.73,5.75
cape town,0.0,ZA,1551658372,82.0,-33.93,18.42,66.99,5.82
vila franca do campo,40.0,PT,1551658393,62.0,37.72,-25.43,57.2,10.29
atar,0.0,MR,1551657972,23.0,20.52,-13.05,61.55,8.88
rungata,,,,,,,,
sao filipe,0.0,CV,1551658425,91.0,14.9,-24.5,71.77,16.82
najran,5.0,SA,1551654000,24.0,17.54,44.22,66.2,2.39
vaini,0.0,IN,1551657904,85.0,15.34,74.49,58.09,1.16
khed brahma,0.0,IN,1551658426,65.0,24.03,73.05,54.94,3.06
alofi,92.0,NU,1551654000,70.0,-19.06,-169.92,84.2,3.36
saint-philippe,75.0,CA,1551657853,68.0,45.36,-73.48,28.99,4.7
marsa matruh,40.0,EG,1551654000,87.0,31.35,27.25,53.6,4.7
vaitupu,,,,,,,,
omboue,92.0,GA,1551657893,99.0,-1.57,9.26,83.83,8.77
mar del plata,24.0,AR,1551658427,42.0,-46.43,-67.52,60.65,18.39
butaritari,92.0,KI,1551657854,100.0,3.07,172.79,79.33,10.45
bubaque,0.0,GW,1551658427,88.0,11.28,-15.83,78.97,11.12
lompoc,90.0,US,1551657937,77.0,34.64,-120.46,61.0,9.17
khvorostyanka,92.0,RU,1551658428,88.0,52.62,48.95,20.56,17.05
norwich,80.0,GB,1551658385,66.0,52.63,1.29,50.0,25.28
yagodnoye,44.0,RU,1551658428,63.0,62.52,149.63,-10.5,2.84
kodinar,8.0,IN,1551658429,94.0,20.79,70.7,64.12,5.3
north bend,1.0,US,1551658225,66.0,43.41,-124.22,51.01,18.34
mount darwin,32.0,ZW,1551658429,68.0,-16.77,31.58,71.59,5.41
gloucester,40.0,GB,1551658265,81.0,51.87,-2.25,44.01,19.46
east london,0.0,ZA,1551658430,100.0,-33.02,27.91,74.83,16.37
vasai,0.0,IN,1551658430,86.0,22.43,69.93,61.1,6.87
boralday,90.0,KZ,1551655800,100.0,43.36,76.86,26.6,2.24
lebu,40.0,ET,1551654000,77.0,8.96,38.73,60.8,9.17
georgetown,75.0,GY,1551654000,83.0,6.8,-58.16,80.6,9.17
hare bay,75.0,CA,1551658368,78.0,48.86,-53.99,17.6,6.93
atuona,0.0,PF,1551657855,100.0,-9.8,-139.03,81.49,12.12
sovetskiy,80.0,RU,1551657972,85.0,56.76,48.47,17.23,3.74
hermanus,0.0,ZA,1551657653,84.0,-34.42,19.24,64.0,3.0
kuryk,0.0,KZ,1551658432,97.0,43.18,51.68,28.88,2.73
lasa,75.0,CY,1551655800,93.0,34.92,32.53,51.8,6.93
yakeshi,36.0,CN,1551658432,70.0,49.28,120.73,16.33,5.64
new norfolk,75.0,AU,1551658395,34.0,-42.78,147.06,70.0,11.41
fenyi,48.0,CN,1551658433,93.0,27.82,114.69,39.86,1.61
atasu,88.0,KZ,1551658433,90.0,48.68,71.64,31.13,15.7
khorramshahr,0.0,IR,1551654000,66.0,30.43,48.18,53.6,2.24
guerrero negro,0.0,MX,1551658434,71.0,27.97,-114.04,63.8,16.37
oshnaviyeh,40.0,IR,1551654000,69.0,37.04,45.1,35.6,4.7
tuatapere,56.0,NZ,1551657908,70.0,-46.13,167.69,64.16,22.3
lolua,,,,,,,,
nazira,90.0,IN,1551655800,93.0,26.91,94.73,60.8,0.38
tsihombe,,,,,,,,
nuuk,0.0,GL,1551657000,92.0,64.17,-51.74,21.2,4.7
kibaya,40.0,RW,1551658373,82.0,-2.2,30.56,64.4,3.36
komyshnya,,,,,,,,
lazaro cardenas,5.0,MX,1551658381,14.0,28.39,-105.62,84.2,9.17
kuzovatovo,64.0,RU,1551658437,82.0,53.54,47.69,21.55,14.7
vardo,90.0,US,1551657919,94.0,39.62,-77.74,34.0,6.93
tumannyy,,,,,,,,
ituacu,44.0,BR,1551658438,81.0,-13.81,-41.3,71.95,5.64
kapaa,90.0,US,1551657808,53.0,22.08,-159.32,78.8,16.11
balabac,44.0,PH,1551658438,100.0,7.99,117.06,79.73,10.56
san matias,75.0,HN,1551654000,42.0,13.97,-86.63,80.6,4.7
dano,0.0,BF,1551658439,28.0,11.14,-3.06,69.34,5.41
krasnoarmeysk,0.0,RU,1551655800,92.0,56.12,38.15,19.4,8.1
puerto ayora,75.0,EC,1551654000,74.0,-0.74,-90.35,84.2,11.41
kaitangata,0.0,NZ,1551657889,67.0,-46.28,169.85,69.61,10.45
karaul,,,,,,,,
avarua,68.0,CK,1551655800,66.0,-21.21,-159.78,84.2,9.17
tautira,20.0,PF,1551655800,62.0,-17.73,-149.15,89.6,5.82
sentyabrskiy,,,,,,,,
tiksi,44.0,RU,1551657856,67.0,71.64,128.87,-5.14,9.22
provideniya,90.0,RU,1551655800,92.0,64.42,-173.23,30.2,38.03
nanortalik,80.0,GL,1551657936,100.0,60.14,-45.24,27.08,7.99
pascagoula,90.0,US,1551658381,82.0,30.37,-88.56,62.01,8.05
arrecife,,,,,,,,
loiza,20.0,PR,1551658273,78.0,18.43,-65.88,78.8,11.41
khatanga,32.0,RU,1551657884,70.0,71.98,102.47,-1.99,17.27
inirida,12.0,CO,1551658443,88.0,3.87,-67.92,78.07,2.62
yellowknife,40.0,CA,1551654000,39.0,62.45,-114.38,12.2,5.82
chabahar,0.0,IR,1551658443,100.0,25.29,60.65,67.4,13.91
bac lieu,,,,,,,,
tuensang,92.0,IN,1551658444,99.0,26.24,94.81,52.51,0.83
iqaluit,75.0,CA,1551657767,69.0,63.75,-68.52,-7.01,5.82
alice springs,32.0,AU,1551655800,18.0,-23.7,133.88,89.6,5.82
el balyana,,,,,,,,
bredasdorp,0.0,ZA,1551654000,87.0,-34.53,20.04,59.0,5.82
diu,8.0,IN,1551658445,94.0,20.71,70.98,64.12,5.3
uwayl,,,,,,,,
imeni poliny osipenko,0.0,RU,1551658445,66.0,52.42,136.49,7.87,1.95
kiruna,0.0,SE,1551655200,83.0,67.86,20.23,-7.61,11.41
hoquiam,1.0,US,1551658212,31.0,46.98,-123.89,50.0,10.29
haguenau,0.0,FR,1551658389,75.0,48.82,7.79,55.4,3.36
codrington,92.0,AU,1551657974,73.0,-28.95,153.24,80.6,5.19
hamilton,75.0,BM,1551657675,94.0,32.3,-64.78,68.0,6.93
tolaga bay,0.0,NZ,1551658447,58.0,-38.37,178.3,72.04,3.4
thompson,90.0,CA,1551654000,60.0,55.74,-97.86,6.8,13.87
palabuhanratu,,,,,,,,
pisco,75.0,PE,1551654000,30.0,-13.71,-76.2,71.6,19.46
sumbe,92.0,AO,1551658449,100.0,-11.2,13.84,78.11,4.74
hithadhoo,88.0,MV,1551657866,99.0,-0.6,73.08,83.6,11.23
alta floresta,8.0,BR,1551658449,92.0,-9.87,-56.08,76.0,2.06
arraial do cabo,88.0,BR,1551658449,95.0,-22.97,-42.02,78.79,7.2
parkes,8.0,AU,1551658225,33.0,-33.14,148.18,88.0,1.99
cidreira,20.0,BR,1551657884,79.0,-30.17,-50.22,73.66,11.01
port alfred,0.0,ZA,1551658224,90.0,-33.59,26.89,66.99,8.77
mount gambier,8.0,AU,1551654000,82.0,-37.83,140.78,64.4,8.05
beringovskiy,56.0,RU,1551657929,92.0,63.05,179.32,33.56,17.83
wisconsin rapids,1.0,US,1551658326,54.0,44.39,-89.82,5.0,6.93
ozgon,,,,,,,,
san isidro,12.0,PH,1551658453,83.0,16.74,121.63,71.63,2.62
bilibino,68.0,RU,1551658015,60.0,68.06,166.44,-8.07,3.06
karpogory,68.0,RU,1551658454,73.0,64.0,44.44,9.98,2.95
osmena,24.0,PH,1551658454,100.0,12.17,124.59,76.76,4.52
trelew,100.0,AR,1551657740,26.0,-43.25,-65.31,73.39,6.76
rawannawi,,,,,,,,
chuy,0.0,UY,1551657874,82.0,-33.69,-53.46,66.37,11.23
cumberland,90.0,US,1551658216,69.0,41.97,-71.43,37.0,5.82
carnarvon,0.0,ZA,1551657920,58.0,-30.97,22.13,57.19,3.4
sitka,56.0,US,1551657629,76.0,37.17,-99.65,8.01,8.99
airai,8.0,TL,1551657892,82.0,-8.93,125.41,75.82,1.61
majene,20.0,ID,1551658456,96.0,-3.54,118.97,82.25,6.64
burns lake,0.0,CA,1551658456,40.0,54.23,-125.76,14.89,3.06
mount isa,0.0,AU,1551655800,40.0,-20.73,139.49,86.0,11.41
beloha,0.0,MG,1551657983,90.0,-25.17,45.06,71.41,3.51
moerai,0.0,PF,1551658457,100.0,-22.43,-151.33,80.41,8.77
ifakara,64.0,TZ,1551658457,96.0,-8.13,36.68,71.86,2.06
valparaiso,1.0,US,1551658370,61.0,41.47,-87.06,19.4,11.41
pacific grove,90.0,US,1551658144,87.0,36.62,-121.92,57.2,10.29
saskylakh,76.0,RU,1551657991,54.0,71.97,114.09,-19.27,3.96
svetlaya,12.0,RU,1551658458,100.0,46.54,138.33,26.45,1.28
zholymbet,80.0,KZ,1551658458,90.0,51.74,71.71,29.56,11.34
narimanov,0.0,RU,1551655800,86.0,46.69,47.85,28.4,6.71
dunedin,0.0,NZ,1551658191,67.0,-45.87,170.5,66.99,3.0
iberia,64.0,PE,1551658459,54.0,-11.41,-69.49,87.16,2.51
lipari,20.0,IT,1551658206,81.0,38.47,14.95,54.0,3.36
along,76.0,IN,1551658460,89.0,28.17,94.8,48.95,1.95
pevek,68.0,RU,1551657900,87.0,69.7,170.27,4.4,9.22
syumsi,68.0,RU,1551658460,90.0,57.11,51.61,14.75,3.74
grand river south east,,,,,,,,
tigil,88.0,RU,1551658461,82.0,57.8,158.67,9.22,11.9
roma,40.0,IT,1551658024,93.0,41.89,12.48,52.0,3.36
sinjah,,,,,,,,
baiyin,0.0,CN,1551654000,45.0,36.55,104.13,26.6,2.24
berlevag,75.0,NO,1551653400,73.0,70.86,29.09,21.2,16.11
juxtlahuaca,0.0,MX,1551658462,39.0,17.43,-99.15,78.97,2.39
staryy nadym,80.0,RU,1551658462,84.0,65.61,72.68,20.15,13.8
margate,75.0,AU,1551657975,34.0,-43.03,147.26,70.0,11.41
bolungarvik,,,,,,,,
abbeville,75.0,FR,1551658451,76.0,50.11,1.83,54.0,16.11
aneho,20.0,TG,1551654000,83.0,6.23,1.6,84.2,9.17
castro,75.0,CL,1551654000,81.0,-42.48,-73.76,53.6,5.82
kholodnyy,8.0,RU,1551658464,71.0,62.72,147.95,-18.69,2.62
qaanaaq,0.0,GL,1551657852,85.0,77.48,-69.36,-6.67,10.45
kosino,64.0,RU,1551658465,85.0,58.41,51.28,7.96,5.3
grand-santi,80.0,GF,1551658465,84.0,4.27,-54.38,75.82,4.29
alekseyevsk,0.0,RU,1551658465,65.0,57.84,108.35,2.2,2.17
hualmay,32.0,PE,1551658465,78.0,-11.1,-77.61,71.81,4.29
nyurba,24.0,RU,1551658466,66.0,63.29,118.35,2.33,4.63
presidencia roque saenz pena,0.0,AR,1551658466,54.0,-26.79,-60.44,85.4,11.79
port elizabeth,90.0,US,1551658425,100.0,39.31,-74.98,39.99,6.93
san cristobal,75.0,EC,1551657739,67.0,-0.39,-78.55,60.8,8.05
warmbad,32.0,DE,1551658419,66.0,50.67,13.08,52.0,13.87
korla,,,,,,,,
kahului,40.0,US,1551657984,44.0,20.89,-156.47,80.6,17.22
upernavik,32.0,GL,1551657932,100.0,72.79,-56.15,8.95,3.29
dicabisagan,64.0,PH,1551658468,100.0,17.08,122.42,73.43,2.73
tabory,92.0,PL,1551658264,92.0,53.89,19.53,46.99,4.97
klichka,48.0,RU,1551658469,66.0,50.44,118,17.9,4.63
dalvik,92.0,SE,1551658204,93.0,57.79,14.13,37.99,4.7
bozhou,0.0,CN,1551658469,85.0,33.86,115.78,37.03,5.41
lorengau,0.0,PG,1551657934,93.0,-2.02,147.27,84.82,5.75
bykovo,88.0,RU,1551658470,87.0,49.76,45.39,22.27,15.03
chapais,1.0,CA,1551654000,71.0,49.78,-74.86,8.6,5.82
kazalinsk,,,,,,,,
hami,0.0,CN,1551657959,61.0,42.84,93.51,22.76,5.86
kodiak,1.0,US,1551657830,20.0,39.95,-94.76,7.0,11.41
dapaong,8.0,TG,1551658471,29.0,10.86,0.2,72.31,5.75
khagrachari,,,,,,,,
cap malheureux,0.0,MU,1551658446,83.0,-19.98,57.61,80.01,1.99
cockburn town,0.0,TC,1551658472,96.0,21.46,-71.14,78.07,18.84
burnie,8.0,AU,1551658362,47.0,-41.05,145.91,77.0,5.01
henties bay,8.0,NA,1551657725,86.0,-22.12,14.28,66.99,1.01
zeya,0.0,RU,1551658473,59.0,53.74,127.27,3.68,2.28
abonnema,56.0,NG,1551658473,92.0,4.71,6.79,75.5,4.63
cherskiy,32.0,RU,1551657878,71.0,68.75,161.3,-10.72,6.76
hirara,75.0,JP,1551654000,77.0,24.8,125.28,68.0,10.29
illoqqortoormiut,,,,,,,,
thunder bay,20.0,CA,1551658311,41.0,48.41,-89.26,3.2,12.75
husavik,56.0,CA,1551657876,75.0,50.56,-96.99,-0.01,10.0
igarka,88.0,RU,1551658475,86.0,67.47,86.57,17.59,19.51
samusu,,,,,,,,
narsaq,68.0,GL,1551653400,50.0,60.91,-46.05,28.4,6.93
tutoia,88.0,BR,1551658475,93.0,-2.76,-42.27,76.85,4.63
carutapera,44.0,BR,1551658351,97.0,-1.2,-46.02,74.74,4.85
kavieng,8.0,PG,1551657880,97.0,-2.57,150.8,85.09,3.96
aklavik,75.0,CA,1551654000,51.0,68.22,-135.01,14.0,2.24
paralimni,24.0,GR,1551658469,77.0,40.99,23.67,46.0,3.0
barentsburg,,,,,,,,
lyndon,1.0,US,1551658265,50.0,38.61,-95.68,10.4,11.41
xai-xai,80.0,MZ,1551658477,100.0,-25.04,33.64,75.86,1.72
san antonio,75.0,CL,1551654000,82.0,-33.58,-71.61,62.6,8.05
havixbeck,0.0,DE,1551658455,71.0,51.98,7.41,55.0,12.75
dingle,56.0,PH,1551657951,84.0,11.0,122.67,77.62,8.1
belushya guba,,,,,,,,
puerto quijarro,0.0,BO,1551654000,66.0,-19.0,-57.72,87.8,5.82
talcahuano,0.0,CL,1551654000,72.0,-36.72,-73.12,62.6,18.34
nikolskoye,0.0,RU,1551657634,92.0,59.7,30.79,15.01,6.71
ilo,8.0,PE,1551658062,81.0,-17.65,-71.34,69.65,3.18
yulara,0.0,AU,1551654000,18.0,-25.24,130.99,87.8,12.75
nome,90.0,US,1551658473,71.0,30.04,-94.42,53.6,13.87
oktyabrskiy,0.0,RU,1551655800,92.0,55.61,37.97,21.2,2.24
candawaga,,,,,,,,
indiana,90.0,US,1551658477,100.0,40.62,-79.15,30.99,5.82
krasnoselkup,,,,,,,,
havelock,75.0,US,1551657967,87.0,34.88,-76.9,66.2,3.36
callaway,90.0,US,1551658421,76.0,46.98,-95.91,-1.0,10.29
superior,90.0,US,1551658474,77.0,39.95,-105.17,8.6,4.7
alihe,48.0,CN,1551658481,65.0,50.57,123.73,13.45,2.51
verkhnevilyuysk,68.0,RU,1551658282,71.0,63.45,120.31,0.98,5.19
port blair,0.0,IN,1551658482,100.0,11.67,92.75,80.95,3.4
cabo san lucas,5.0,MX,1551658247,32.0,22.89,-109.91,84.99,8.05
nizhneyansk,,,,,,,,
antofagasta,20.0,CL,1551654000,68.0,-23.65,-70.4,69.8,13.87
tampakan,68.0,PH,1551658482,74.0,6.44,124.93,79.15,3.4
harper,90.0,US,1551658299,63.0,30.3,-99.24,37.4,12.75
kununurra,0.0,AU,1551655800,79.0,-15.77,128.74,84.2,4.7
charters towers,24.0,AU,1551658483,85.0,-20.07,146.27,72.71,11.68
kibre mengist,24.0,ET,1551658484,62.0,5.87,38.99,58.27,2.28
adrar,0.0,DZ,1551654000,15.0,27.87,-0.29,64.4,10.29
bhainsdehi,0.0,IN,1551658484,73.0,21.65,77.63,55.93,4.41
lichinga,75.0,MZ,1551654000,100.0,-13.3,35.25,66.2,2.24
oranjestad,20.0,AW,1551657600,78.0,12.52,-70.03,78.8,20.8
sili,8.0,CN,1551658485,87.0,28.38,117.2,45.31,6.2
hasaki,75.0,JP,1551657875,100.0,35.73,140.83,51.8,16.11
keti bandar,20.0,PK,1551658486,100.0,24.14,67.45,67.0,12.57
weihe,76.0,CN,1551658486,97.0,32.99,105.33,34.55,1.95
noumea,75.0,NC,1551655800,62.0,-22.28,166.46,87.8,8.05
yerbogachen,0.0,RU,1551658486,68.0,61.28,108.01,1.43,2.62
igrim,68.0,RU,1551658490,71.0,63.19,64.42,8.23,9.44
bundaberg,40.0,AU,1551657908,69.0,-24.87,152.35,84.99,18.34
umzimvubu,,,,,,,,
lerwick,88.0,GB,1551657000,93.0,60.15,-1.15,44.6,10.29
meulaboh,0.0,ID,1551658491,100.0,4.14,96.13,78.61,3.51
shirokiy,88.0,RU,1551658447,70.0,53.87,39.17,28.99,1.99
hofn,80.0,IS,1551658492,100.0,64.25,-15.21,36.67,37.4
brae,20.0,GB,1551657000,93.0,60.4,-1.35,44.6,10.29
champerico,5.0,MX,1551653220,28.0,16.38,-93.6,96.8,6.93
vestmannaeyjar,80.0,IS,1551658416,95.0,63.44,-20.27,37.57,13.8
luganville,0.0,VU,1551658493,91.0,-15.51,167.18,84.91,7.65
letterkenny,80.0,IE,1551658493,88.0,54.95,-7.73,45.67,21.3
notre-dame-du-lac,20.0,CA,1551658378,54.0,47.61,-68.8,28.4,3.74
paamiut,0.0,GL,1551658493,100.0,61.99,-49.67,24.38,7.65
playas,48.0,EC,1551658494,79.0,-2.64,-80.39,79.87,5.75
souillac,90.0,FR,1551658329,67.0,45.6,-0.6,60.8,31.09
santa barbara,90.0,US,1551658254,82.0,34.42,-119.7,61.0,11.41
mullovka,90.0,RU,1551654000,85.0,54.22,49.39,17.6,8.95
chokurdakh,44.0,RU,1551657860,71.0,70.62,147.9,-10.41,5.86
west lafayette,90.0,US,1551658296,73.0,40.43,-86.91,23.0,10.29
ishigaki,75.0,JP,1551654000,77.0,24.34,124.16,68.0,10.29
broome,36.0,GB,1551657913,66.0,52.47,1.45,50.0,25.28
dzhusaly,,,,,,,,
nanakuli,75.0,US,1551658430,64.0,21.39,-158.15,80.6,16.11
polovinnoye,80.0,RU,1551658497,89.0,54.79,65.99,23.03,19.51
bowling green,90.0,US,1551658398,80.0,36.99,-86.44,34.0,12.75
yarmouth,20.0,GB,1551658490,75.0,50.71,-1.5,48.0,11.41
atbasar,48.0,KZ,1551658498,91.0,51.81,68.36,27.67,13.24
bosaso,92.0,SO,1551658498,100.0,11.28,49.18,76.76,2.39
gat,0.0,SN,1551655800,63.0,14.69,-16.54,66.2,18.34
victoria,75.0,BN,1551655800,100.0,5.28,115.24,78.8,4.29
naze,56.0,NG,1551658499,93.0,5.43,7.07,72.53,3.96
kieta,24.0,PG,1551657997,94.0,-6.22,155.63,82.7,2.73
monterey,90.0,US,1551658462,87.0,36.6,-121.89,57.2,10.29
belaya gora,0.0,RU,1551658500,37.0,68.54,146.19,-24.99,2.95
ambodifototra,,,,,,,,
onega,32.0,RU,1551658500,82.0,63.91,38.09,7.42,1.95
lagoa,0.0,PT,1551657737,76.0,37.14,-8.45,55.0,4.7
kongsberg,90.0,NO,1551658274,100.0,59.67,9.65,37.99,5.82
mathathane,56.0,BW,1551658501,80.0,-22.27,28.75,74.74,3.62
ucluelet,75.0,CA,1551658227,56.0,48.94,-125.55,46.0,11.41
coquimbo,20.0,CL,1551654000,77.0,-29.95,-71.34,64.4,10.29
eydhafushi,88.0,MV,1551658502,100.0,5.1,73.07,82.66,10.45
calexico,12.0,US,1551653760,25.0,32.68,-115.5,77.0,7.65
banjar,92.0,ID,1551657925,96.0,-7.37,108.54,71.59,2.73
navoi,12.0,IT,1551658452,93.0,46.17,11.83,46.99,3.36
emerald,56.0,AU,1551658023,51.0,-23.53,148.16,81.0,13.87
quang ngai,0.0,VN,1551658353,90.0,15.12,108.8,68.03,1.95
koygorodok,0.0,RU,1551658503,61.0,60.44,51.01,-8.07,2.62
torbay,90.0,CA,1551657804,92.0,47.66,-52.73,24.01,13.87
corumba,0.0,BR,1551654000,66.0,-19.0,-57.65,87.8,5.82
isangel,20.0,VU,1551658504,93.0,-19.55,169.27,84.28,6.98
wulanhaote,,,,,,,,
buala,8.0,SB,1551658505,71.0,-8.15,159.59,88.15,3.74
mortka,80.0,RU,1551658505,78.0,59.33,66.02,19.3,8.21
camapua,0.0,BR,1551658506,63.0,-19.53,-54.04,75.05,6.2
soyo,88.0,AO,1551658506,94.0,-6.13,12.37,77.66,2.51
karratha,88.0,AU,1551658506,42.0,-20.74,116.85,85.36,2.84
komsomolskiy,20.0,RU,1551657935,39.0,67.55,63.78,-13.02,5.64
aswan,0.0,EG,1551657936,68.0,24.09,32.9,46.93,2.73
ternate,20.0,PH,1551658031,83.0,14.29,120.72,82.0,4.7
luanda,20.0,AO,1551654000,83.0,-8.83,13.24,80.6,4.7
attawapiskat,,,,,,,,
satipo,32.0,PE,1551658508,91.0,-11.26,-74.64,70.24,1.5
tubinskiy,40.0,RU,1551655800,66.0,52.89,58.22,10.4,4.47
taltal,0.0,CL,1551658508,74.0,-25.41,-70.49,64.16,2.62
omsukchan,80.0,RU,1551658509,63.0,62.53,155.8,-10.23,5.64
itoman,75.0,JP,1551657792,72.0,26.12,127.67,68.0,14.99
feni,24.0,BD,1551658509,93.0,23.02,91.41,63.58,2.51
bud,24.0,NO,1551657670,86.0,62.91,6.91,37.4,8.05
hambantota,20.0,LK,1551657938,100.0,6.12,81.12,77.44,4.97
pueblo,90.0,US,1551658250,72.0,38.25,-104.61,10.4,6.93
patiya,0.0,BD,1551658510,100.0,22.3,91.98,67.45,5.19
quchan,8.0,IR,1551658510,90.0,37.11,58.51,28.66,3.62
coahuayana,68.0,MX,1551658510,28.0,18.62,-100.35,87.2,2.95
dolbeau,,,,,,,,
abu samrah,56.0,SY,1551658511,93.0,35.3,37.18,46.39,7.31
kostomuksha,0.0,RU,1551658511,58.0,64.59,30.6,-2.4,2.73
tual,64.0,ID,1551658512,100.0,-5.67,132.75,78.88,10.67
laurel,1.0,US,1551657979,54.0,45.67,-108.77,1.0,9.17
terrak,0.0,NO,1551658501,67.0,65.09,12.37,23.0,9.17
stornoway,,,,,,,,
severo-kurilsk,68.0,RU,1551657938,100.0,50.68,156.12,25.46,21.74
dabakala,0.0,CI,1551658513,50.0,8.36,-4.43,70.69,3.96
de aar,0.0,ZA,1551658513,66.0,-30.65,24.01,58.13,3.74
faya,0.0,SA,1551654000,62.0,18.39,42.45,55.4,10.29
savelugu,0.0,GH,1551658514,26.0,9.63,-0.83,77.26,8.21
conneaut,90.0,US,1551658506,92.0,41.95,-80.55,25.0,4.7
nago,12.0,IT,1551657934,75.0,45.88,10.89,50.0,2.24
yumen,0.0,CN,1551657944,62.0,40.29,97.04,18.22,4.97
vila velha,20.0,BR,1551658113,78.0,-3.71,-38.6,81.0,3.36
portland,1.0,US,1551657653,29.0,45.52,-122.67,42.01,25.28
sao felix do xingu,32.0,BR,1551658515,92.0,-6.64,-51.99,75.37,3.4
san quintin,0.0,PH,1551658515,74.0,17.54,120.52,69.25,3.62
state college,90.0,US,1551658253,100.0,40.79,-77.86,30.2,2.39
catuday,0.0,PH,1551658516,89.0,16.29,119.81,78.11,6.87
nouakchott,0.0,MR,1551655800,37.0,18.08,-15.98,66.2,9.17
yenagoa,68.0,NG,1551658516,89.0,4.92,6.26,77.48,6.76
broken hill,0.0,AU,1551654000,27.0,-31.97,141.45,86.0,5.82
homer,75.0,US,1551658238,97.0,59.64,-151.54,37.99,5.82
namibe,12.0,AO,1551658040,100.0,-15.19,12.15,75.68,7.43
abu dhabi,20.0,AE,1551654000,63.0,24.47,54.37,64.4,8.05
geraldton,75.0,CA,1551654000,49.0,49.72,-86.95,-2.21,10.29
ixtapa,5.0,MX,1551658210,74.0,20.71,-105.21,78.8,11.41
listvyanka,0.0,RU,1551658229,92.0,51.86,104.86,21.0,4.47
namatanai,12.0,PG,1551657946,100.0,-3.66,152.44,83.11,5.64
casma,36.0,PE,1551658519,93.0,-9.47,-78.3,74.15,10.78
rehoboth,0.0,NA,1551658519,46.0,-23.31,17.08,62.5,3.96
ouango,32.0,CD,1551658520,97.0,4.31,22.55,70.42,2.17
port macquarie,100.0,AU,1551658444,54.0,-31.43,152.91,81.0,11.41
manokwari,56.0,ID,1551657989,100.0,-0.87,134.08,80.0,7.99
itarema,88.0,BR,1551658517,99.0,-2.92,-39.92,74.6,1.61
shambu,80.0,ET,1551658521,96.0,9.57,37.1,53.63,3.06
leiyang,56.0,CN,1551658521,91.0,26.42,112.85,43.91,1.72
penugonda,0.0,IN,1551658521,94.0,16.65,81.74,72.22,3.85
bodden town,20.0,KY,1551657605,78.0,19.28,-81.25,82.4,10.29
sur,0.0,OM,1551657879,100.0,22.57,59.53,67.13,3.51
huarmey,32.0,PE,1551658053,68.0,-10.07,-78.15,72.49,3.51
dubai,40.0,AE,1551654000,59.0,25.27,55.3,66.2,8.05
kaeo,24.0,NZ,1551657787,33.0,-35.1,173.78,80.01,7.0
shache,44.0,CN,1551658359,96.0,38.42,77.24,34.0,1.39
kasungu,32.0,MW,1551658523,93.0,-13.04,33.48,59.98,1.83
pangnirtung,64.0,CA,1551658489,66.0,66.15,-65.72,-9.55,0.94
uruzgan,24.0,AF,1551658523,80.0,32.93,66.63,17.9,1.28
yamasaki,75.0,JP,1551658316,100.0,34.97,134.76,50.0,4.7
srednekolymsk,32.0,RU,1551657872,61.0,67.46,153.71,-13.42,2.62
bonthe,8.0,SL,1551658524,80.0,7.53,-12.5,78.16,5.08
wanaka,0.0,NZ,1551658525,51.0,-44.7,169.14,65.15,3.62
shiyan,8.0,CN,1551658525,75.0,32.65,110.78,30.86,2.17
lara,40.0,PE,1551657600,58.0,-16.45,-71.53,59.0,6.93
ostrovnoy,36.0,RU,1551658526,69.0,68.05,39.51,-2.62,6.2
rodrigues alves,75.0,BR,1551654000,78.0,-7.74,-72.65,82.4,2.24
stephenville,40.0,US,1551658517,64.0,32.22,-98.2,37.4,13.87
kaspiysk,90.0,RU,1551655800,67.0,42.88,47.64,37.0,2.24
gunnaur,36.0,IN,1551658527,89.0,28.24,78.44,54.8,2.95
were ilu,56.0,ET,1551658527,95.0,10.6,39.43,50.89,0.94
fort nelson,5.0,CA,1551654000,37.0,58.81,-122.69,19.4,2.39
fare,80.0,PF,1551658527,100.0,-16.7,-151.02,83.33,2.62
barra,36.0,BR,1551658528,73.0,-11.09,-43.14,75.28,5.53
gambissara,12.0,SN,1551658528,23.0,13.24,-14.31,68.71,10.22
kampot,20.0,KH,1551655800,94.0,10.62,104.18,73.4,3.36
anloga,20.0,GH,1551654000,83.0,5.79,0.9,84.2,9.17
lucapa,36.0,AO,1551658529,93.0,-8.42,20.74,66.86,2.39
kamenskoye,,,,,,,,
nurota,56.0,UZ,1551655800,93.0,40.56,65.69,42.8,9.17
general roca,0.0,AR,1551654000,41.0,-39.03,-67.58,78.8,8.05
cayenne,88.0,GF,1551655800,78.0,4.94,-52.33,77.0,3.36
doume,,,,,,,,
baglung,0.0,NP,1551657942,80.0,28.27,83.59,37.84,3.18
warqla,,,,,,,,
la tuque,92.0,CA,1551658531,79.0,47.44,-72.79,23.48,6.08
bagotville,75.0,AU,1551658277,74.0,-28.98,153.42,80.6,10.29
nouadhibou,0.0,MR,1551654000,63.0,20.93,-17.03,64.4,18.34
ulaangom,32.0,MN,1551658532,66.0,49.98,92.07,-2.13,1.61
cabra,8.0,ES,1551658401,66.0,37.47,-4.43,59.0,3.36
sambava,56.0,MG,1551658533,100.0,-14.27,50.17,79.69,10.0
port lincoln,0.0,AU,1551658533,87.0,-34.72,135.86,69.07,9.55
alvorada,0.0,BR,1551658394,78.0,-30.0,-51.08,73.4,13.87
marzuq,88.0,YE,1551658534,93.0,14.4,46.47,58.09,2.17
les cayes,0.0,HT,1551658534,99.0,18.19,-73.75,78.11,13.47
mangrol,0.0,IN,1551658534,83.0,25.33,76.51,52.96,1.72
avera,90.0,US,1551658526,88.0,33.19,-82.53,66.99,4.7
tongchuan,76.0,CN,1551654000,82.0,34.9,108.95,32.0,2.24
amapa,20.0,HN,1551658519,66.0,15.09,-87.97,84.2,17.22
chagda,,,,,,,,
emba,75.0,CY,1551655800,93.0,34.81,32.42,51.8,6.93
kulhudhuffushi,24.0,MV,1551658536,100.0,6.62,73.07,81.53,10.67
chinhoyi,0.0,ZW,1551658536,61.0,-17.36,30.19,69.65,8.43
puerto lempira,20.0,HN,1551654000,69.0,15.27,-83.77,82.4,3.36
amahai,44.0,ID,1551654460,93.0,-3.31,129,82.99,1.99
saint-pierre,90.0,FR,1551657725,87.0,48.95,4.24,53.6,23.04
kruisfontein,0.0,ZA,1551657982,84.0,-34.0,24.73,60.52,6.42
panaba,0.0,MX,1551658538,41.0,21.28,-88.27,86.44,8.88
monrovia,20.0,LR,1551654000,94.0,6.33,-10.8,77.0,7.31
kudahuvadhoo,64.0,MV,1551657930,98.0,2.67,72.89,82.84,14.81
muroto,75.0,JP,1551654000,87.0,33.37,134.14,53.6,6.93
sturgis,0.0,US,1551658281,49.0,44.41,-103.51,3.99,14.99
kuching,75.0,MY,1551655800,94.0,1.56,110.34,77.0,1.5
tarakan,20.0,ID,1551654000,88.0,3.3,117.63,77.0,2.24
tambo grande,90.0,EC,1551654000,78.0,-3.58,-79.83,89.6,3.36
solnechnyy,64.0,RU,1551657986,77.0,50.72,136.64,14.35,2.28
illapel,0.0,CL,1551658540,87.0,-31.63,-71.17,60.97,2.95
christchurch,0.0,NZ,1551658385,68.0,-43.53,172.64,73.99,13.87
hit,12.0,IQ,1551657982,43.0,33.64,42.83,57.01,8.55
tabas,0.0,IR,1551658528,43.0,33.6,56.92,33.07,2.39
ancud,75.0,CL,1551654000,81.0,-41.87,-73.83,53.6,5.82
jaumave,90.0,MX,1551658217,38.0,23.41,-99.38,91.4,13.87
sao lourenco do sul,0.0,BR,1551658509,65.0,-31.37,-51.98,71.0,11.68
cootehill,80.0,GB,1551658505,88.0,54.07,-7.08,37.99,4.0
pousat,,,,,,,,
frontera,5.0,MX,1551653580,46.0,18.53,-92.64,89.6,5.82
pushkino,0.0,RU,1551655800,92.0,56.01,37.85,21.2,3.18
calvinia,0.0,ZA,1551658543,67.0,-31.47,19.78,52.24,3.18
sioux lookout,90.0,CA,1551656820,70.0,50.1,-91.92,-4.01,12.75
best,90.0,NL,1551658541,71.0,51.5,5.39,55.99,18.34
temaraia,,,,,,,,
zhuhai,0.0,CN,1551654000,63.0,40.71,112.04,26.6,4.47
dhidhdhoo,24.0,MV,1551658544,100.0,6.88,73.1,81.53,10.67
wattegama,24.0,LK,1551658544,96.0,7.35,80.68,66.5,2.73
mzimba,36.0,MW,1551658545,90.0,-11.9,33.6,59.44,2.39
sungaipenuh,68.0,ID,1551658545,95.0,-2.08,101.38,67.13,0.72
muyinga,64.0,BI,1551658545,96.0,-2.85,30.34,59.71,2.73
gushikawa,1.0,JP,1551658391,55.0,26.35,127.87,68.0,16.11
kenai,40.0,US,1551658324,80.0,60.55,-151.26,35.01,8.05
salym,76.0,RU,1551658546,74.0,60.06,71.48,20.74,13.8
kalmunai,44.0,LK,1551658546,97.0,7.42,81.82,73.25,2.73
luderitz,8.0,NA,1551657957,79.0,-26.65,15.16,63.08,17.83
lahij,92.0,YE,1551658547,91.0,13.06,44.88,72.31,2.28
lebedinyy,56.0,RU,1551658547,72.0,58.52,125.52,7.28,2.62
manakara,56.0,MG,1551658547,93.0,-22.14,48.01,78.52,5.3
sabang,64.0,PH,1551658548,91.0,13.72,123.58,78.65,5.75
tuy hoa,0.0,VN,1551658548,99.0,13.08,109.3,71.68,4.29
ljungby,88.0,SE,1551657707,100.0,56.83,13.94,41.0,4.7
yaguajay,88.0,CU,1551658549,87.0,22.33,-79.24,74.92,2.62
lermontovka,0.0,RU,1551658549,54.0,47.15,134.34,27.26,5.75
bloomingdale,1.0,US,1551658248,43.0,41.96,-88.08,18.0,13.87
qena,0.0,EG,1551654000,44.0,26.16,32.72,51.8,2.24
asau,,,,,,,,
mrirt,,,,,,,,
priverno,40.0,IT,1551658539,93.0,41.47,13.18,53.01,3.36
williams lake,5.0,CA,1551654000,31.0,52.13,-122.14,15.8,2.24
georgiyevskoye,68.0,RU,1551658551,88.0,44.16,39.25,22.63,2.95
dubbo,0.0,AU,1551655800,35.0,-32.25,148.6,84.2,13.87
alto longa,76.0,BR,1551658260,94.0,-5.25,-42.21,73.21,3.06
saldanha,88.0,PT,1551658552,82.0,41.42,-6.55,51.83,13.47
caravelas,56.0,BR,1551658552,100.0,-17.73,-39.27,83.51,13.13
fuerte olimpo,0.0,BR,1551658552,68.0,-21.04,-57.87,83.15,4.07
coihaique,40.0,CL,1551654000,53.0,-45.58,-72.07,51.8,3.36
miri,0.0,NG,1551658553,55.0,10.31,9.75,69.7,4.63
mabama,0.0,SL,1551658553,54.0,8.94,-11.9,71.9,6.2
altamont,48.0,CA,1551658217,59.0,49.4,-98.5,-0.01,12.75
fort smith,75.0,US,1551658377,58.0,35.39,-94.42,28.4,13.87
manzhouli,56.0,CN,1551658554,67.0,49.6,117.43,18.85,5.41
port keats,0.0,AU,1551658554,87.0,-14.25,129.55,85.54,9.55
biltine,0.0,TD,1551658555,53.0,14.53,20.93,69.07,4.29
sao gotardo,92.0,BR,1551657675,100.0,-19.31,-46.05,66.99,5.3
smithers,5.0,CA,1551654000,26.0,54.78,-127.17,19.4,2.62
leeuwarden,75.0,NL,1551658544,81.0,53.2,5.79,53.01,18.34
taoudenni,0.0,ML,1551658556,30.0,22.68,-3.98,51.83,5.97
kurkino,88.0,RU,1551658556,90.0,53.42,38.66,28.03,15.26
muros,75.0,ES,1551658292,93.0,42.77,-9.06,57.99,16.11
santa rosa,92.0,AR,1551658496,90.0,-36.62,-64.29,68.17,7.87
flinders,0.0,AU,1551658445,57.0,-34.58,150.85,86.0,6.93
praia da vitoria,75.0,PT,1551656795,82.0,38.73,-27.07,55.4,13.24
ontario,90.0,US,1551658553,76.0,34.07,-117.65,64.0,6.93
zhaoqing,80.0,CN,1551658559,97.0,23.05,112.47,62.5,3.74
lamar,90.0,US,1551658554,78.0,38.09,-102.62,8.6,8.05
lac-megantic,1.0,CA,1551657904,58.0,45.58,-70.88,26.6,3.36
chekhov,75.0,RU,1551655800,100.0,55.14,37.45,21.2,1.39
te anau,0.0,NZ,1551658560,49.0,-45.41,167.72,62.23,13.58
bryan,90.0,US,1551658251,75.0,30.67,-96.37,44.6,13.87
banda aceh,0.0,ID,1551658561,98.0,5.56,95.32,71.59,2.28
bay roberts,90.0,CA,1551658550,92.0,47.58,-53.28,24.01,13.87
saint george,20.0,GR,1551653400,93.0,39.45,22.34,44.6,1.28
constitucion,20.0,MX,1551658216,6.0,23.99,-104.67,84.2,5.82
nalut,0.0,LY,1551658562,91.0,31.86,10.98,43.73,2.84
veraval,24.0,FR,1551658555,71.0,49.65,0.71,54.0,26.4
plettenberg bay,0.0,ZA,1551658563,95.0,-34.05,23.37,64.88,6.76
auki,0.0,NG,1551658563,49.0,12.18,6.51,68.21,3.4
san ramon,40.0,NI,1551658369,64.0,12.92,-85.84,75.2,6.93
rio grande,0.0,BR,1551658565,85.0,-32.03,-52.1,71.23,12.24
karauzyak,,,,,,,,
lata,0.0,IN,1551658566,88.0,30.78,78.62,28.03,2.51
mantua,48.0,IT,1551658264,75.0,45.16,10.79,52.0,2.24
buenaventura,88.0,CO,1551658462,88.0,3.89,-77.07,72.71,2.62
pedasi,24.0,PA,1551658567,88.0,7.53,-80.03,80.63,12.12
boulder,90.0,US,1551657815,77.0,40.02,-105.27,10.0,4.7
maridi,,,,,,,,
novolvovsk,,,,,,,,
adet,8.0,ET,1551658568,57.0,11.26,37.49,50.53,2.39
verkhovazhye,64.0,RU,1551658569,85.0,60.75,42.05,11.6,5.97
santa catarina de tepehuanes,0.0,MX,1551658569,14.0,25.34,-105.72,75.64,9.22
liepaja,8.0,LV,1551657000,93.0,56.52,21.02,39.2,11.41
mabaruma,32.0,GY,1551658065,74.0,8.2,-59.78,79.28,8.55
yatou,75.0,CM,1551654000,100.0,3.63,9.81,78.8,2.24
halifax,20.0,CA,1551657966,73.0,44.65,-63.58,23.0,4.7
pahrump,1.0,US,1551658445,39.0,36.21,-115.98,68.0,18.34
maymyo,40.0,MM,1551655800,77.0,22.03,96.47,59.0,2.39
yeppoon,20.0,AU,1551655800,57.0,-23.13,150.74,80.6,13.87
ruatoria,,,,,,,,
karamea,,,,,,,,
kargopol,76.0,RU,1551658572,78.0,61.51,38.95,10.3,3.18
sembakung,20.0,ID,1551654000,88.0,3.82,117.25,77.0,2.24
honiara,8.0,SB,1551658572,63.0,-9.43,159.96,87.07,2.95
santa cruz,75.0,US,1551658562,93.0,36.97,-122.03,59.0,6.93
ormara,0.0,PK,1551658574,91.0,25.21,64.64,66.55,4.85
sobolevo,92.0,RU,1551658575,94.0,54.43,31.9,31.36,13.24
nelson bay,20.0,AU,1551658561,47.0,-32.72,152.14,84.99,11.41
sitio novo do tocantins,,,,,,,,
masoko,36.0,TZ,1551658576,97.0,-9.33,33.75,65.51,2.28
los llanos de aridane,20.0,ES,1551658532,63.0,28.66,-17.92,62.6,10.29
northam,20.0,GB,1551658570,75.0,51.04,-4.21,44.6,10.29
nerl,0.0,RU,1551658576,82.0,56.66,40.39,12.55,10.22
maningrida,68.0,AU,1551658577,90.0,-12.05,134.23,81.76,16.15
qaqortoq,88.0,GL,1551657000,42.0,60.72,-46.03,28.4,9.17
mangai,24.0,CD,1551658577,97.0,-4.07,19.59,72.22,2.73
punta alta,0.0,AR,1551654000,43.0,-27.46,-55.82,87.8,4.7
nargana,92.0,PA,1551658578,100.0,9.44,-78.59,79.28,14.03
altyn-topkan,8.0,TJ,1551655800,87.0,40.65,69.6,42.8,6.71
somerset east,0.0,ZA,1551658578,88.0,-32.72,25.59,57.46,2.73
port hawkesbury,1.0,CA,1551658543,73.0,45.62,-61.36,21.0,5.82
rawson,100.0,AR,1551658422,26.0,-43.3,-65.11,73.39,6.76
mandal,36.0,MN,1551658579,71.0,48.82,106.5,14.26,2.62
pundaguitan,92.0,PH,1551658579,100.0,6.37,126.17,77.66,5.3
chicama,90.0,PE,1551654000,83.0,-7.84,-79.15,77.0,9.17
russell,20.0,AR,1551654000,31.0,-33.01,-68.8,87.8,2.24
fairbanks,75.0,US,1551658259,73.0,64.84,-147.72,25.0,3.36
nagorsk,44.0,RU,1551658580,60.0,59.32,50.8,-3.25,3.51
choix,0.0,MX,1551658581,33.0,26.71,-108.33,79.28,1.95
walvis bay,36.0,NA,1551657725,88.0,-22.95,14.51,66.99,3.36
vanavara,0.0,RU,1551658582,65.0,60.35,102.28,2.47,3.4
grindavik,0.0,IS,1551658155,74.0,63.84,-22.43,37.4,19.46
ahipara,8.0,NZ,1551658582,62.0,-35.17,173.16,73.43,6.2
havre-saint-pierre,20.0,CA,1551654000,66.0,50.23,-63.6,14.0,8.05
maine-soroa,0.0,NE,1551658583,27.0,13.21,12.02,77.71,10.22
anito,76.0,PH,1551658583,100.0,12.45,125.29,78.79,10.89
iralaya,20.0,HN,1551654000,69.0,15.0,-83.23,82.4,3.36
westport,56.0,IE,1551658384,84.0,53.8,-9.52,43.0,1.01
sarangani,88.0,PH,1551658584,100.0,5.4,125.46,77.53,10.33
umtata,0.0,ZA,1551657600,100.0,-31.59,28.78,59.0,2.17
babanusah,,,,,,,,
piacabucu,44.0,BR,1551658536,77.0,-10.41,-36.43,80.45,12.46
sao joao da barra,0.0,BR,1551654000,83.0,-21.64,-41.05,80.6,9.17
tanout,32.0,NE,1551658041,19.0,14.97,8.88,73.84,12.46
evensk,80.0,RU,1551658586,100.0,61.92,159.24,14.93,16.04
pingliang,76.0,CN,1551658586,82.0,35.54,106.68,28.3,2.51
boa vista,0.0,BR,1551654000,36.0,2.82,-60.67,93.2,11.41
kutum,0.0,SD,1551658586,34.0,14.2,24.66,57.73,8.66
ko samui,20.0,TH,1551655800,78.0,9.54,99.94,82.4,8.05
esterhazy,44.0,CA,1551658587,71.0,50.65,-102.08,-0.15,17.49
salamiyah,36.0,SY,1551658587,96.0,35.01,37.05,39.5,2.95
lomovka,40.0,RU,1551655800,66.0,53.92,58.37,10.4,4.47
poum,0.0,MK,1551657994,75.0,41.28,20.71,16.91,1.39
gondanglegi,80.0,ID,1551658588,95.0,-7.75,112.01,73.3,3.18
khudumelapye,12.0,BW,1551658588,63.0,-23.91,24.95,66.64,2.62
marigot,20.0,HT,1551658516,58.0,18.23,-72.32,82.4,8.05
fukue,75.0,JP,1551658447,93.0,35.03,136.69,53.01,8.05
kokstad,20.0,ZA,1551658589,98.0,-30.55,29.42,54.26,2.17
himatnagar,8.0,IN,1551658590,61.0,23.6,72.96,59.93,2.73
louisbourg,,,,,,,,
usinsk,12.0,RU,1551658590,56.0,66.0,57.56,-6.22,8.43
olinda,75.0,EC,1551658543,83.0,-2.03,-79.75,78.8,12.75
rurrenabaque,8.0,BO,1551658394,88.0,-14.44,-67.53,75.73,1.95
hobyo,88.0,SO,1551658591,91.0,5.35,48.53,77.17,11.34
tongliao,92.0,CN,1551658591,80.0,43.61,122.27,34.51,12.8
zhob,100.0,PK,1551658592,85.0,31.34,69.45,31.63,2.62
baghmara,56.0,IN,1551658592,95.0,23.8,86.21,63.26,0.72
hashtrud,64.0,IR,1551658592,87.0,37.48,47.05,27.35,4.97
sami,0.0,BF,1551658592,43.0,12.17,-4.17,62.77,4.41
palmer,0.0,AU,1551657924,38.0,-34.85,139.16,77.0,13.87
fiumicino,40.0,IT,1551658570,93.0,41.77,12.23,52.0,3.36
tazovskiy,88.0,RU,1551658470,84.0,67.47,78.7,12.23,19.84
camacha,0.0,PT,1551655800,82.0,33.08,-16.33,60.8,6.93
quixada,,,,,,,,
whitehaven,90.0,US,1551658583,74.0,35.03,-90.03,35.6,17.22
araouane,0.0,ML,1551658594,36.0,18.9,-3.53,52.6,4.07
collie,0.0,AU,1551658511,37.0,-33.36,116.15,72.0,11.23
abilene,1.0,US,1551658413,59.0,32.45,-99.73,35.6,14.99
rosarito,40.0,CO,1551657600,94.0,4.91,-75.23,77.0,9.17
kamenka,88.0,RU,1551657450,90.0,53.19,44.05,26.01,15.93
sumbawa,,,,,,,,
grand forks,90.0,US,1551658577,70.0,47.91,-97.06,-0.41,10.29
alvaraes,0.0,BR,1551653100,83.0,-3.22,-64.8,84.2,3.36
paragominas,92.0,BR,1551658596,97.0,-3.0,-47.35,72.49,5.41
sirpur,0.0,IN,1551658596,85.0,18.94,78.68,61.51,1.16
kavaratti,8.0,IN,1551658597,100.0,10.57,72.64,81.76,10.67
sinnamary,92.0,GF,1551658597,88.0,5.38,-52.96,80.63,12.35
inhambane,36.0,MZ,1551658597,91.0,-23.87,35.38,80.45,8.66
zhezkazgan,92.0,KZ,1551658598,96.0,47.8,67.71,31.31,3.29
muncar,80.0,ID,1551658598,90.0,-8.43,114.34,82.57,4.52
kropachevo,0.0,RU,1551658598,73.0,55.01,57.99,11.2,8.88
artyk,,,,,,,,
ugoofaaru,88.0,MV,1551658599,100.0,5.67,73,82.66,10.45
gerash,0.0,IR,1551658599,76.0,27.67,54.14,27.85,2.17
waverley,0.0,AU,1551658593,54.0,-33.9,151.26,86.0,12.75
ewo,12.0,CG,1551658600,93.0,-0.88,14.81,71.9,5.19
corner brook,90.0,CA,1551657661,52.0,48.95,-57.95,19.4,4.7
prescott,40.0,US,1551658306,43.0,34.54,-112.47,64.0,13.87
kandrian,12.0,PG,1551658600,86.0,-6.21,149.55,82.84,2.73
lima,0.0,PE,1551658504,73.0,-12.06,-77.04,77.0,11.41
waw,,,,,,,,
krabi,20.0,TH,1551655800,94.0,8.06,98.92,77.0,5.82
jhargram,32.0,IN,1551658602,96.0,22.45,86.99,63.04,0.94
champagnole,0.0,FR,1551658548,53.0,46.75,5.91,50.0,13.87
plouzane,48.0,FR,1551658551,76.0,48.38,-4.62,50.0,26.4
chala,90.0,TZ,1551654000,93.0,-7.6,31.27,62.6,2.39
acapulco,5.0,MX,1551653280,74.0,16.86,-99.88,82.4,13.87
ritchie,0.0,ZA,1551657600,33.0,-29.03,24.6,71.6,8.05
platanos,40.0,GR,1551658549,93.0,35.47,23.6,55.0,12.01
farafangana,76.0,MG,1551658604,100.0,-22.82,47.83,76.54,3.85
great falls,1.0,US,1551658558,63.0,47.5,-111.29,-1.0,11.41
fethiye,40.0,TR,1551658102,100.0,36.62,29.12,45.0,5.82
port hardy,75.0,CA,1551655320,80.0,50.7,-127.42,33.8,19.46
port moresby,40.0,PG,1551654000,70.0,-9.47,147.16,86.0,11.41
matara,68.0,PE,1551658067,84.0,-13.74,-72.9,48.64,1.28
sechura,24.0,PE,1551657946,72.0,-5.56,-80.82,79.24,10.56
yarim,8.0,YE,1551658606,81.0,14.3,44.38,42.65,1.61
shaoyang,48.0,CN,1551658606,90.0,27.23,111.45,41.3,2.73
samatau,,,,,,,,
longonjo,20.0,AO,1551658607,93.0,-12.91,15.25,56.29,1.16
puerto baquerizo moreno,75.0,EC,1551654000,88.0,-0.9,-89.6,80.6,2.24
caiaponia,92.0,BR,1551658607,99.0,-16.96,-51.81,69.97,4.41
vilaka,,,,,,,,
haibowan,,,,,,,,
kaitong,12.0,CN,1551658608,41.0,44.81,123.15,35.63,7.43
salinas,90.0,US,1551658599,87.0,36.67,-121.66,57.99,11.41
george town,75.0,MY,1551655800,83.0,5.42,100.33,78.8,7.54
paka,0.0,HR,1551655800,74.0,45.29,18.06,37.4,8.05
zaragoza,0.0,ES,1551658515,36.0,41.65,-0.88,64.4,10.29
kirakira,76.0,SB,1551658610,100.0,-10.46,161.92,81.71,8.88
yabrud,20.0,SY,1551658553,86.0,33.97,36.66,37.99,6.93
verkhoyansk,32.0,RU,1551658611,46.0,67.55,133.39,-29.58,1.05
shu,20.0,KZ,1551658611,79.0,43.6,73.76,29.02,4.18
rossano,0.0,IT,1551658520,89.0,39.57,16.63,46.99,1.99
grinnell,1.0,US,1551658328,64.0,41.74,-92.72,5.0,18.34
xapuri,44.0,BR,1551658612,90.0,-10.65,-68.5,76.54,0.94
rudbar,,,,,,,,
marsaxlokk,40.0,MT,1551658551,87.0,35.84,14.54,55.4,10.29
waipawa,0.0,NZ,1551658156,54.0,-39.94,176.59,75.0,8.01
imbituba,40.0,BR,1551654000,83.0,-28.24,-48.67,78.8,8.05
meyungs,,,,,,,,
bandiagara,0.0,ML,1551657600,30.0,14.35,-3.61,69.8,6.93
eyl,92.0,SO,1551658614,99.0,7.98,49.82,76.72,11.34
puga,0.0,MX,1551658614,53.0,20.14,-98.07,86.08,4.29
grimari,,,,,,,,
arlit,0.0,NE,1551658614,34.0,18.74,7.39,57.41,5.97
yining,76.0,CN,1551658615,85.0,29.04,114.56,35.63,2.39
azanka,88.0,RU,1551658615,76.0,58.04,64.79,20.11,8.77
homa bay,8.0,KE,1551658615,100.0,-0.53,34.45,69.52,3.62
kaabong,8.0,UG,1551658616,66.0,3.51,34.14,58.54,1.28
mehamn,75.0,NO,1551653400,73.0,71.03,27.85,21.2,16.11
mbigou,32.0,GA,1551658616,97.0,-1.9,11.91,67.4,2.62
klaksvik,92.0,FO,1551657000,93.0,62.23,-6.59,41.0,6.93
harlingen,90.0,US,1551658410,93.0,26.19,-97.7,64.4,25.28
khandyga,0.0,RU,1551658617,34.0,62.65,135.58,-23.77,2.51
bentiu,,,,,,,,
marcona,,,,,,,,
san policarpo,92.0,PH,1551658617,99.0,12.18,125.51,77.71,7.76
dwarka,20.0,IN,1551655800,100.0,28.58,77.04,57.2,2.84
houma,64.0,CN,1551658618,81.0,35.63,111.36,28.25,2.17
feltre,12.0,IT,1551658596,93.0,46.02,11.91,46.99,3.36
coihueco,0.0,CL,1551657977,49.0,-36.63,-71.83,71.6,6.93
alghero,0.0,IT,1551655200,93.0,40.56,8.32,53.6,9.17
puyang,0.0,CN,1551658619,82.0,35.76,115.02,39.05,11.68
navolato,40.0,MX,1551658580,27.0,24.76,-107.7,88.0,11.41
pemberton,0.0,AU,1551658400,75.0,-34.44,116.03,69.01,1.01
kajaani,20.0,FI,1551655200,83.0,64.22,27.73,-11.21,1.12
hervey bay,40.0,AU,1551658509,69.0,-25.3,152.85,86.0,18.34
ayan,0.0,TR,1551658621,70.0,40.67,33.6,14.8,2.62
cairo,0.0,EG,1551658373,76.0,30.05,31.24,57.2,4.7
jacksonville,1.0,US,1551658353,64.0,30.33,-81.66,78.8,5.82
yaan,32.0,NG,1551658622,74.0,7.38,8.57,79.42,11.01
mana,0.0,RS,1551655800,86.0,43.52,20.24,37.4,1.12
ginir,32.0,ET,1551658622,75.0,7.14,40.71,57.82,2.62
mossendjo,68.0,CG,1551658622,96.0,-2.95,12.72,70.33,2.06
yar-sale,80.0,RU,1551658623,85.0,66.83,70.83,4.54,23.87
chama,88.0,ZM,1551658623,95.0,-11.22,33.16,66.82,3.96
darnah,80.0,LY,1551658624,99.0,32.77,22.64,60.61,8.88
moree,0.0,AU,1551658606,44.0,-29.46,149.84,81.0,9.17
mamlyutka,76.0,KZ,1551658624,88.0,54.94,68.54,25.46,20.62
saint-augustin,0.0,FR,1551657969,45.0,44.83,-0.61,64.4,16.11
salalah,20.0,OM,1551653400,64.0,17.01,54.1,75.2,5.82
denpasar,20.0,ID,1551655800,88.0,-8.65,115.22,82.4,4.7
jaru,8.0,BR,1551658625,89.0,-10.43,-62.48,76.63,2.17
dabhol,0.0,IN,1551658626,100.0,17.6,73.17,68.66,7.31
quimperle,75.0,FR,1551658601,71.0,47.87,-3.55,51.01,33.33
oxchuc,20.0,MX,1551658626,39.0,16.78,-92.34,73.57,1.5
tres picos,0.0,MX,1551658626,55.0,16.23,-93.58,78.65,3.06
wainwright,0.0,CA,1551658509,79.0,52.84,-110.86,-2.49,11.45
novopokrovka,0.0,RU,1551658627,68.0,45.85,134.51,30.68,2.84
mokhsogollokh,64.0,RU,1551658627,64.0,61.4,128.95,-4.38,3.85
paracin,0.0,RS,1551655800,86.0,43.86,21.41,35.6,1.12
vilyuysk,48.0,RU,1551657936,70.0,63.75,121.63,-1.95,5.19
micheweni,12.0,TZ,1551658628,100.0,-4.97,39.83,83.74,5.3
saint-ambroise,80.0,FR,1551658626,87.0,47.25,-0.65,53.6,19.46
huntington,90.0,US,1551658564,100.0,40.87,-73.43,36.0,8.05
ahuimanu,20.0,US,1551658430,44.0,21.44,-157.84,80.6,12.75
yongan,0.0,CN,1551658629,78.0,39.7,113.69,24.34,1.72
hammerfest,90.0,NO,1551657000,100.0,70.66,23.68,24.8,23.04
tahe,0.0,CN,1551658630,76.0,52.34,124.71,10.03,2.39
abnub,0.0,EG,1551654000,54.0,27.27,31.15,53.6,10.29
bilma,0.0,NE,1551658630,25.0,18.69,12.92,55.3,9.78
kachiry,88.0,KZ,1551658631,92.0,53.07,76.1,31.81,10.67
barabai,8.0,ID,1551658631,88.0,-2.59,115.38,77.53,2.95
merritt island,1.0,US,1551658578,44.0,28.54,-80.67,82.0,9.17
brandon,20.0,US,1551658516,70.0,43.59,-96.57,-2.21,11.41
laguna,5.0,MX,1551653040,28.0,27.52,-110.01,86.0,12.75
mys shmidta,,,,,,,,
waingapu,36.0,ID,1551658632,93.0,-9.65,120.26,79.24,3.51
kogon,0.0,UZ,1551655800,93.0,39.73,64.54,42.8,4.7
gamba,24.0,CN,1551658633,38.0,28.28,88.52,-15.85,3.51
beyneu,0.0,KZ,1551658633,83.0,45.32,55.19,17.59,4.63
boende,36.0,CD,1551658071,98.0,-0.28,20.88,72.98,0.16
anori,8.0,BR,1551658634,84.0,-3.74,-61.66,80.81,4.07
bunia,0.0,CD,1551658634,88.0,1.56,30.25,61.51,2.84
awbari,0.0,LY,1551658634,53.0,26.59,12.77,46.03,2.73
la ronge,90.0,CA,1551654000,60.0,55.1,-105.3,8.6,17.22
san rafael del sur,20.0,NI,1551654000,49.0,11.85,-86.44,89.6,11.41
darhan,0.0,MN,1551658635,70.0,49.49,105.92,16.01,2.84
hasilpur,44.0,PK,1551658635,97.0,29.69,72.55,56.02,6.76
acari,92.0,BR,1551658636,97.0,-6.44,-36.64,71.95,3.06
tilichiki,80.0,RU,1551658636,84.0,60.47,166.1,19.93,4.85
natal,40.0,BR,1551654000,78.0,-5.81,-35.21,80.6,3.36
parabel,68.0,RU,1551658637,78.0,58.71,81.5,28.43,13.02
nongpoh,75.0,IN,1551655800,77.0,25.9,91.88,64.4,5.82
kutoarjo,68.0,ID,1551658637,95.0,-7.72,109.9,79.46,3.62
cutervo,92.0,PE,1551658637,94.0,-6.38,-78.82,54.04,1.95
borogontsy,24.0,RU,1551658638,52.0,62.67,131.17,-18.51,2.62
sillanwali,44.0,PK,1551658638,95.0,31.83,72.54,49.54,2.95
belmonte,92.0,PT,1551657832,89.0,40.36,-7.35,55.0,11.99
buraydah,0.0,SA,1551654000,62.0,26.33,43.97,51.8,6.93
chiredzi,12.0,ZW,1551658639,78.0,-21.05,31.67,76.09,6.42
tawkar,,,,,,,,
oskemen,40.0,KZ,1551655800,92.0,49.96,82.61,30.2,6.71
falealupo,,,,,,,,
teofilo otoni,36.0,BR,1551658640,71.0,-17.86,-41.51,76.13,8.1
ust-nera,8.0,RU,1551658640,48.0,64.57,143.24,-31.87,2.17
ndungu,44.0,TZ,1551658640,93.0,-4.38,38.06,66.19,2.73
oktyabrskoye,20.0,RU,1551658598,74.0,56.73,85.44,30.99,15.66
kirtipur,20.0,NP,1551657000,100.0,27.68,85.28,44.6,3.36
olafsvik,,,,,,,,
les escoumins,76.0,CA,1551658641,88.0,48.35,-69.4,19.16,4.07
morant bay,75.0,JM,1551654000,54.0,17.88,-76.41,80.6,16.11
paita,24.0,PE,1551658542,63.0,-5.09,-81.11,80.18,8.1
awallan,0.0,PH,1551658642,76.0,17.92,121.91,73.84,4.18
yichang,32.0,CN,1551658643,89.0,30.77,111.32,39.95,1.39
burica,,,,,,,,
khor,0.0,RU,1551658643,60.0,47.88,134.96,25.06,4.18
havoysund,90.0,NO,1551657000,100.0,71.0,24.66,24.8,23.04
winnemucca,90.0,US,1551658608,80.0,40.97,-117.74,43.0,6.93
saint anthony,1.0,US,1551658562,49.0,43.97,-111.68,28.0,3.36
dayong,76.0,PH,1551658644,100.0,11.74,122.04,78.11,16.26
betanzos,40.0,ES,1551658541,71.0,43.28,-8.21,55.99,9.17
mundo nuevo,0.0,CL,1551654000,72.0,-32.72,-71.41,62.6,6.93
zhireken,20.0,RU,1551658645,73.0,52.82,117.29,15.16,4.52
atambua,20.0,ID,1551658373,100.0,-9.11,124.89,78.11,3.51
ngunguru,32.0,NZ,1551658085,31.0,-35.62,174.5,80.01,5.99
kashary,48.0,RU,1551658646,83.0,49.04,41.01,21.91,13.24
kathmandu,20.0,NP,1551657000,100.0,27.71,85.32,44.6,3.36
camacupa,20.0,AO,1551658647,84.0,-12.02,17.48,61.28,4.18
honningsvag,75.0,NO,1551653400,73.0,70.98,25.97,21.2,16.11
gualaceo,75.0,EC,1551657600,77.0,-2.89,-78.78,62.6,11.41
umm durman,,,,,,,,
mahibadhoo,76.0,MV,1551658064,100.0,3.78,72.97,82.75,12.35
luangwa,44.0,MZ,1551658648,64.0,-15.62,30.4,76.9,2.73
zhanakorgan,92.0,KZ,1551658648,91.0,43.91,67.25,39.91,7.99
salihli,12.0,TR,1551658648,95.0,38.48,28.15,29.74,2.28
half moon bay,90.0,US,1551658624,81.0,37.46,-122.43,57.2,8.05
rafai,0.0,CF,1551658649,68.0,4.95,23.92,68.93,5.08
poya,32.0,NC,1551658649,90.0,-21.35,165.16,78.61,4.85
necochea,92.0,AR,1551658617,61.0,-38.55,-58.74,71.01,3.0
rosetta,40.0,EG,1551654000,76.0,31.4,30.42,57.2,12.75
bambanglipuro,32.0,ID,1551658556,98.0,-7.95,110.28,75.46,4.18
jinxiang,0.0,CN,1551658650,75.0,35.07,116.31,37.88,8.43
kankan,8.0,GN,1551658651,30.0,10.38,-9.3,70.87,7.99
moussoro,0.0,TD,1551658651,32.0,13.64,16.49,78.61,11.79
hovd,75.0,NO,1551658585,68.0,63.83,10.7,32.0,11.41
baykit,12.0,RU,1551658651,58.0,61.68,96.39,4.18,5.97
adiake,0.0,CI,1551655800,83.0,5.29,-3.3,82.4,8.05
okha,0.0,RU,1551658652,75.0,53.59,142.95,-0.15,5.97
mezen,64.0,RU,1551658652,75.0,65.85,44.24,5.08,2.62
libreville,40.0,GA,1551655800,94.0,0.39,9.45,78.8,4.7
vostok,0.0,RU,1551658653,73.0,46.45,135.83,23.93,2.39
batemans bay,0.0,AU,1551658612,52.0,-35.71,150.18,87.01,3.29
ciudad bolivar,32.0,VE,1551658654,40.0,8.12,-63.55,87.88,15.14
ada,40.0,US,1551658637,70.0,47.3,-96.52,-1.0,10.29
tondano,40.0,ID,1551655800,94.0,1.3,124.91,77.0,0.94
kars,0.0,TR,1551655800,79.0,40.61,43.1,23.0,1.16
ankazoabo,48.0,MG,1551658655,92.0,-22.29,44.51,70.15,3.29
rawlins,1.0,US,1551657632,72.0,41.79,-107.24,12.2,2.62
toora-khem,0.0,RU,1551658655,64.0,52.47,96.11,3.01,2.17
sunyani,8.0,GH,1551658656,66.0,7.34,-2.33,72.49,2.73
poplar bluff,90.0,US,1551658643,68.0,36.76,-90.39,32.0,17.22
kowary,64.0,PL,1551658566,95.0,50.79,15.83,48.99,10.78
grand gaube,0.0,MU,1551658446,83.0,-20.01,57.66,80.01,1.99
borgarnes,0.0,IS,1551658614,51.0,64.54,-21.92,37.4,13.87
edd,0.0,ER,1551658657,86.0,13.93,41.69,60.56,3.06
tuggurt,,,,,,,,
khani,0.0,GE,1551655800,68.0,41.96,42.96,32.0,5.82
arkhangelsk,90.0,RU,1551655800,84.0,64.54,40.54,6.8,2.24
touros,75.0,BR,1551654000,88.0,-5.2,-35.46,80.6,4.7
eresos,0.0,GR,1551658627,37.0,39.17,25.93,46.0,3.0
springbok,0.0,ZA,1551658659,82.0,-29.67,17.88,55.88,2.95
bestobe,24.0,KZ,1551658659,82.0,52.5,73.1,27.35,14.25
north platte,1.0,US,1551658537,50.0,41.12,-100.77,6.8,11.41
aksha,44.0,RU,1551658659,73.0,50.28,113.29,15.16,4.52
frutal,0.0,BR,1551658660,97.0,-20.02,-48.93,68.66,3.96
kango,68.0,GA,1551658660,89.0,0.19,10.1,76.31,1.5
macuelizo,0.0,NI,1551658660,59.0,13.65,-86.61,74.6,2.95
ojinaga,1.0,US,1551658614,13.0,29.56,-104.41,84.2,4.7
